{
  "version": "1.0",
  "city": "Ессентуки",
  "description": "Маршрут по Курортному парку Ессентуков",
  "points": [
    {
      "id": 1,
      "number": 1,
      "lat": 44.0444,
      "lng": 42.8564,
      "name": "Грязелечебница им. Семашко",
      "description": "Старейшая грязелечебница на КМВ. Основана в 1915 году. Здесь проводят уникальные процедуры с использованием иловой грязи Тамбуканского озера.",
      "audioFile": "point1.mp3",
      "imageFile": "point1.jpg",
      "duration": 180,
      "tips": [
        "🕐 Режим работы: 8:00 - 18:00",
        "💧 Рядом есть бювет с минеральной водой",
        "🍴 Кафе 'Старый Ессентук' в 50 метрах"
      ],
      "history": "Здание построено в 1915 году по проекту архитектора...",
      "gallery": [
        "point1_old1.jpg",
        "point1_old2.jpg"
      ]
    },
    {
      "id": 2,
      "number": 2,
      "lat": 44.0455,
      "lng": 42.8575,
      "name": "Питьевая галерея №17",
      "description": "Знаменитая питьевая галерея, построенная в 1850-х годах. Здесь можно попробовать воду 'Ессентуки-4' и 'Ессентуки-17' прямо из источника.",
      "audioFile": "point2.mp3",
      "imageFile": "point2.jpg",
      "duration": 150,
      "tips": [
        "⚠️ Перерыв: 11:30 - 13:00",
        "💧 Возьмите с собой стаканчик",
        "📅 Архивные фото доступны в галерее"
      ],
      "history": "Галерея была построена в 1850-х годах...",
      "gallery": [
        "point2_old1.jpg",
        "point2_old2.jpg"
      ]
    },
    {
      "id": 3,
      "number": 3,
      "lat": 44.0465,
      "lng": 42.8585,
      "name": "Нижние ванны",
      "description": "Лечебный комплекс с минеральными ваннами. Построен в 1890 году. Уникальная архитектура в стиле модерн.",
      "audioFile": "point3.mp3",
      "imageFile": "point3.jpg",
      "duration": 200,
      "tips": [
        "🕐 Запись по телефону: +7 (87934) 6-10-10",
        "🏨 Гостиница 'Бристоль' рядом",
        "🛍️ Сувенирная лавка 'Кавказский сувенир'"
      ],
      "history": "Комплекс построен в 1890 году...",
      "gallery": []
    }
  ],
  "recommended": [
    {
      "lat": 44.0458,
      "lng": 42.8580,
      "name": "☕ Кафе 'Хычины'",
      "type": "cafe",
      "tip": "Попробуйте настоящие хычины с сыром"
    },
    {
      "lat": 44.0448,
      "lng": 42.8568,
      "name": "🛍️ Сувениры 'Кавказ'",
      "type": "shop",
      "tip": "Магниты, бальзамы, чаи"
    }
  ]
}
